{
    "plus_code": {
        "compound_code": "X5H2+CH5 Leping, Jingdezhen, Jiangxi, China",
        "global_code": "7PWVX5H2+CH5"
    },
    "results": [
        {
            "address_components": [
                {
                    "long_name": "X5H2+9PF",
                    "short_name": "X5H2+9PF",
                    "types": [
                        "plus_code"
                    ]
                },
                {
                    "long_name": "Leping",
                    "short_name": "Leping",
                    "types": [
                        "political",
                        "sublocality",
                        "sublocality_level_1"
                    ]
                },
                {
                    "long_name": "Jingdezhen",
                    "short_name": "Jingdezhen",
                    "types": [
                        "locality",
                        "political"
                    ]
                },
                {
                    "long_name": "Jiangxi",
                    "short_name": "Jiangxi",
                    "types": [
                        "administrative_area_level_1",
                        "political"
                    ]
                },
                {
                    "long_name": "China",
                    "short_name": "CN",
                    "types": [
                        "country",
                        "political"
                    ]
                },
                {
                    "long_name": "333399",
                    "short_name": "333399",
                    "types": [
                        "postal_code"
                    ]
                }
            ],
            "formatted_address": "X5H2+9PF, Leping, Jingdezhen, Jiangxi, China, 333399",
            "geometry": {
                "location": {
                    "lat": 28.97844,
                    "lng": 117.151796
                },
                "location_type": "GEOMETRIC_CENTER",
                "viewport": {
                    "northeast": {
                        "lat": 28.9797889802915,
                        "lng": 117.1531449802915
                    },
                    "southwest": {
                        "lat": 28.9770910197085,
                        "lng": 117.1504470197085
                    }
                }
            },
            "place_id": "ChIJ2YPaSF6zMDQRioz_8TfM3Eg",
            "types": [
                "establishment",
                "point_of_interest"
            ]
        },
        {
            "address_components": [
                {
                    "long_name": "X5H2+CH",
                    "short_name": "X5H2+CH",
                    "types": [
                        "plus_code"
                    ]
                },
                {
                    "long_name": "Leping",
                    "short_name": "Leping",
                    "types": [
                        "political",
                        "sublocality",
                        "sublocality_level_1"
                    ]
                },
                {
                    "long_name": "Jingdezhen",
                    "short_name": "Jingdezhen",
                    "types": [
                        "locality",
                        "political"
                    ]
                },
                {
                    "long_name": "Jiangxi",
                    "short_name": "Jiangxi",
                    "types": [
                        "administrative_area_level_1",
                        "political"
                    ]
                },
                {
                    "long_name": "China",
                    "short_name": "CN",
                    "types": [
                        "country",
                        "political"
                    ]
                }
            ],
            "formatted_address": "X5H2+CH Leping, Jingdezhen, Jiangxi, China",
            "geometry": {
                "bounds": {
                    "northeast": {
                        "lat": 28.978625,
                        "lng": 117.1515
                    },
                    "southwest": {
                        "lat": 28.9785,
                        "lng": 117.151375
                    }
                },
                "location": {
                    "lat": 28.978521,
                    "lng": 117.151499
                },
                "location_type": "GEOMETRIC_CENTER",
                "viewport": {
                    "northeast": {
                        "lat": 28.9799114802915,
                        "lng": 117.1527864802915
                    },
                    "southwest": {
                        "lat": 28.9772135197085,
                        "lng": 117.1500885197085
                    }
                }
            },
            "place_id": "GhIJ_3ItWoD6PEARHZjcKLJJXUA",
            "plus_code": {
                "compound_code": "X5H2+CH Leping, Jingdezhen, Jiangxi, China",
                "global_code": "7PWVX5H2+CH"
            },
            "types": [
                "plus_code"
            ]
        },
        {
            "address_components": [
                {
                    "long_name": "Ma Duan Lin Lu",
                    "short_name": "Ma Duan Lin Lu",
                    "types": [
                        "route"
                    ]
                },
                {
                    "long_name": "Le Ping Shi",
                    "short_name": "Le Ping Shi",
                    "types": [
                        "political",
                        "sublocality",
                        "sublocality_level_1"
                    ]
                },
                {
                    "long_name": "Jing De Zhen Shi",
                    "short_name": "Jing De Zhen Shi",
                    "types": [
                        "locality",
                        "political"
                    ]
                },
                {
                    "long_name": "Jiang Xi Sheng",
                    "short_name": "Jiang Xi Sheng",
                    "types": [
                        "administrative_area_level_1",
                        "political"
                    ]
                },
                {
                    "long_name": "China",
                    "short_name": "CN",
                    "types": [
                        "country",
                        "political"
                    ]
                },
                {
                    "long_name": "333399",
                    "short_name": "333399",
                    "types": [
                        "postal_code"
                    ]
                }
            ],
            "formatted_address": "Ma Duan Lin Lu, Le Ping Shi, Jing De Zhen Shi, Jiang Xi Sheng, China, 333399",
            "geometry": {
                "bounds": {
                    "northeast": {
                        "lat": 28.97831,
                        "lng": 117.15136
                    },
                    "southwest": {
                        "lat": 28.97763,
                        "lng": 117.15021
                    }
                },
                "location": {
                    "lat": 28.9779703,
                    "lng": 117.1507852
                },
                "location_type": "GEOMETRIC_CENTER",
                "viewport": {
                    "northeast": {
                        "lat": 28.9793189802915,
                        "lng": 117.1521339802915
                    },
                    "southwest": {
                        "lat": 28.9766210197085,
                        "lng": 117.1494360197085
                    }
                }
            },
            "place_id": "ChIJS5bRPF6zMDQRnFrGcMpuTAI",
            "types": [
                "route"
            ]
        },
        {
            "address_components": [
                {
                    "long_name": "333399",
                    "short_name": "333399",
                    "types": [
                        "postal_code"
                    ]
                },
                {
                    "long_name": "Leping",
                    "short_name": "Leping",
                    "types": [
                        "political",
                        "sublocality",
                        "sublocality_level_1"
                    ]
                },
                {
                    "long_name": "Jingdezhen",
                    "short_name": "Jingdezhen",
                    "types": [
                        "locality",
                        "political"
                    ]
                },
                {
                    "long_name": "China",
                    "short_name": "CN",
                    "types": [
                        "country",
                        "political"
                    ]
                }
            ],
            "formatted_address": "Leping, Jingdezhen, China, 333399",
            "geometry": {
                "bounds": {
                    "northeast": {
                        "lat": 29.0188899,
                        "lng": 117.1735317
                    },
                    "southwest": {
                        "lat": 28.939039,
                        "lng": 117.0794083
                    }
                },
                "location": {
                    "lat": 28.9682499,
                    "lng": 117.13175
                },
                "location_type": "APPROXIMATE",
                "viewport": {
                    "northeast": {
                        "lat": 29.0188899,
                        "lng": 117.1735317
                    },
                    "southwest": {
                        "lat": 28.939039,
                        "lng": 117.0794083
                    }
                }
            },
            "place_id": "ChIJFyklcnSzMDQRqg3dsjCtkYY",
            "types": [
                "postal_code"
            ]
        },
        {
            "address_components": [
                {
                    "long_name": "Leping",
                    "short_name": "Leping",
                    "types": [
                        "political",
                        "sublocality",
                        "sublocality_level_1"
                    ]
                },
                {
                    "long_name": "Jingdezhen",
                    "short_name": "Jingdezhen",
                    "types": [
                        "locality",
                        "political"
                    ]
                },
                {
                    "long_name": "Jiangxi",
                    "short_name": "Jiangxi",
                    "types": [
                        "administrative_area_level_1",
                        "political"
                    ]
                },
                {
                    "long_name": "China",
                    "short_name": "CN",
                    "types": [
                        "country",
                        "political"
                    ]
                }
            ],
            "formatted_address": "Leping, Jingdezhen, Jiangxi, China",
            "geometry": {
                "bounds": {
                    "northeast": {
                        "lat": 29.2202999,
                        "lng": 117.56245
                    },
                    "southwest": {
                        "lat": 28.71789,
                        "lng": 116.96271
                    }
                },
                "location": {
                    "lat": 28.9617299,
                    "lng": 117.129
                },
                "location_type": "APPROXIMATE",
                "viewport": {
                    "northeast": {
                        "lat": 29.2202999,
                        "lng": 117.56245
                    },
                    "southwest": {
                        "lat": 28.71789,
                        "lng": 116.96271
                    }
                }
            },
            "place_id": "ChIJp7-T3qOzMDQRL3-3diIFTU4",
            "types": [
                "political",
                "sublocality",
                "sublocality_level_1"
            ]
        },
        {
            "address_components": [
                {
                    "long_name": "Jingdezhen",
                    "short_name": "Jingdezhen",
                    "types": [
                        "locality",
                        "political"
                    ]
                },
                {
                    "long_name": "Jiangxi",
                    "short_name": "Jiangxi",
                    "types": [
                        "administrative_area_level_1",
                        "political"
                    ]
                },
                {
                    "long_name": "China",
                    "short_name": "CN",
                    "types": [
                        "country",
                        "political"
                    ]
                }
            ],
            "formatted_address": "Jingdezhen, Jiangxi, China",
            "geometry": {
                "bounds": {
                    "northeast": {
                        "lat": 29.93149,
                        "lng": 117.71617
                    },
                    "southwest": {
                        "lat": 28.71789,
                        "lng": 116.96271
                    }
                },
                "location": {
                    "lat": 29.2686899,
                    "lng": 117.1783899
                },
                "location_type": "APPROXIMATE",
                "viewport": {
                    "northeast": {
                        "lat": 29.93149,
                        "lng": 117.71617
                    },
                    "southwest": {
                        "lat": 28.71789,
                        "lng": 116.96271
                    }
                }
            },
            "place_id": "ChIJERRB91DMMDQRot4iJgH2PIk",
            "types": [
                "locality",
                "political"
            ]
        },
        {
            "address_components": [
                {
                    "long_name": "Jiangxi",
                    "short_name": "Jiangxi",
                    "types": [
                        "administrative_area_level_1",
                        "political"
                    ]
                },
                {
                    "long_name": "China",
                    "short_name": "CN",
                    "types": [
                        "country",
                        "political"
                    ]
                }
            ],
            "formatted_address": "Jiangxi, China",
            "geometry": {
                "bounds": {
                    "northeast": {
                        "lat": 30.0745999,
                        "lng": 118.4876899
                    },
                    "southwest": {
                        "lat": 24.48624,
                        "lng": 113.5761501
                    }
                },
                "location": {
                    "lat": 28.6741699,
                    "lng": 115.91004
                },
                "location_type": "APPROXIMATE",
                "viewport": {
                    "northeast": {
                        "lat": 30.0745999,
                        "lng": 118.4876899
                    },
                    "southwest": {
                        "lat": 24.48624,
                        "lng": 113.5761501
                    }
                }
            },
            "place_id": "ChIJIXUyNUX2LzQR_wfvzG--O64",
            "types": [
                "administrative_area_level_1",
                "political"
            ]
        },
        {
            "address_components": [
                {
                    "long_name": "China",
                    "short_name": "CN",
                    "types": [
                        "country",
                        "political"
                    ]
                }
            ],
            "formatted_address": "China",
            "geometry": {
                "bounds": {
                    "northeast": {
                        "lat": 53.5609739,
                        "lng": 134.7754563
                    },
                    "southwest": {
                        "lat": 17.9996,
                        "lng": 73.4994136
                    }
                },
                "location": {
                    "lat": 35.86166,
                    "lng": 104.195397
                },
                "location_type": "APPROXIMATE",
                "viewport": {
                    "northeast": {
                        "lat": 53.5609739,
                        "lng": 134.7754563
                    },
                    "southwest": {
                        "lat": 17.9996,
                        "lng": 73.4994136
                    }
                }
            },
            "place_id": "ChIJwULG5WSOUDERbzafNHyqHZU",
            "types": [
                "country",
                "political"
            ]
        }
    ],
    "status": "OK"
}